City,Lat,Lng,Max Temp,Humidity,Cloudiness,Wind Speed,Country,Date
tasiilaq,65.6145,-37.6368,42.96,71,16,1.14,GL,1660608749
rio gallegos,-51.6226,-69.2181,35.65,75,40,12.66,AR,1660609205
castro,-24.7911,-50.0119,60.21,68,0,5.59,BR,1660608800
rikitea,-23.1203,-134.9692,73.36,76,1,14.54,PF,1660608409
punta arenas,-53.15,-70.9167,37.51,81,20,16.11,CL,1660608694
yertsevo,60.7966,40.086,58.37,75,24,3.51,RU,1660609154
busselton,-33.65,115.3333,58.21,79,100,19.08,AU,1660608400
atuona,-9.8,-139.0333,76.48,77,10,16.31,PF,1660608719
hobart,-42.8794,147.3294,56.26,88,75,4.61,AU,1660608701
narsaq,60.9167,-46.05,50.22,96,100,1.74,GL,1660608717
kodinsk,58.6881,99.1844,49.23,97,98,5.26,RU,1660608962
saldanha,-33.0117,17.9442,52.92,63,100,1.07,ZA,1660608711
hirara,24.8,125.2833,88.07,74,40,11.5,JP,1660609208
agadez,19.75,10.25,88.99,34,15,8.63,NE,1660609209
dawei,14.0833,98.2,76.87,93,95,3.87,MM,1660609210
mwinilunga,-11.7358,24.4293,61.81,29,9,2.46,ZM,1660609210
hithadhoo,-0.6,73.0833,82.6,74,9,10.25,MV,1660608696
upernavik,72.7868,-56.1549,41.0,92,73,13.42,GL,1660608721
kavieng,-2.5744,150.7967,82.8,70,99,6.29,PG,1660608677
ushuaia,-54.8,-68.3,38.86,65,40,4.61,AR,1660608698
saint-philippe,-21.3585,55.7679,65.79,77,41,9.44,RE,1660608715
siva,29.2041,25.5195,83.19,49,0,10.2,EG,1660609212
ribeira grande,38.5167,-28.7,73.99,79,33,19.26,PT,1660608684
goalpara,26.1667,90.6167,78.8,89,11,2.15,IN,1660609212
batsfjord,70.6345,29.7185,56.98,71,100,8.05,NO,1660609213
albany,42.6001,-73.9662,75.58,58,66,1.9,US,1660609214
mana,5.6592,-53.7767,77.79,81,8,5.39,GF,1660609214
sandpoint,48.2766,-116.5533,92.86,28,0,4.61,US,1660609186
nefteyugansk,61.0998,72.6035,50.47,65,91,8.77,RU,1660609216
vestmannaeyjar,63.4427,-20.2734,48.52,72,6,17.69,IS,1660608797
mikhaylovka,50.06,43.2379,65.79,37,8,10.76,RU,1660609217
ancud,-41.8697,-73.8203,46.38,89,91,15.08,CL,1660608762
caravelas,-17.7125,-39.2481,72.28,71,88,9.42,BR,1660609217
bobrovka,54.047,61.7455,52.88,68,17,5.37,RU,1660609218
vila,42.0304,-8.1588,55.71,86,85,5.12,PT,1660609219
pedro ii,-4.4247,-41.4586,74.59,33,25,7.09,BR,1660609219
tuktoyaktuk,69.4541,-133.0374,45.84,89,100,8.32,CA,1660608756
kaeo,-35.1,173.7833,64.33,87,100,16.49,NZ,1660608917
barrow,71.2906,-156.7887,35.62,93,100,16.11,US,1660608714
lagoa,39.05,-27.9833,71.69,71,96,18.25,PT,1660608866
saint george,37.1041,-113.5841,90.19,59,20,3.44,US,1660608835
mahebourg,-20.4081,57.7,68.25,74,77,12.12,MU,1660608769
bethel,41.3712,-73.414,75.29,59,0,4.61,US,1660608825
arraial do cabo,-22.9661,-42.0278,70.56,80,0,32.46,BR,1660608563
longyearbyen,78.2186,15.6401,40.84,75,20,4.61,SJ,1660608813
faanui,-16.4833,-151.75,77.36,79,56,9.06,PF,1660608738
kodiak,57.79,-152.4072,60.31,72,100,9.22,US,1660608719
naples,40.8333,14.25,80.74,80,0,3.44,IT,1660609223
kaitangata,-46.2817,169.8464,52.57,62,97,2.82,NZ,1660608831
okhotsk,59.3833,143.3,61.14,78,97,7.81,RU,1660609223
gambo,4.6482,22.2633,67.14,98,99,2.06,CF,1660609224
talnakh,69.4865,88.3972,56.21,73,100,4.32,RU,1660608677
mataura,-46.1927,168.8643,55.47,63,76,3.33,NZ,1660608407
jalu,29.0331,21.5482,82.83,42,2,7.14,LY,1660609225
kapaa,22.0752,-159.319,84.18,67,20,13.8,US,1660608675
yellowknife,62.456,-114.3525,73.56,64,11,11.99,CA,1660608707
vestmanna,62.1564,-7.1664,45.52,71,100,8.05,FO,1660609226
shenjiamen,29.9576,122.298,82.76,85,95,22.75,CN,1660608692
gat,31.61,34.7642,77.81,100,0,4.9,IL,1660608695
lebu,-37.6167,-73.65,49.42,95,100,25.61,CL,1660608734
bredasdorp,-34.5322,20.0403,47.16,73,100,3.83,ZA,1660608723
liberty,31.8335,-81.5004,86.27,46,0,4.61,US,1660609228
maumere,-8.6199,122.2111,79.92,70,57,1.21,ID,1660609228
isilkul,54.9109,71.2728,50.95,68,95,5.84,RU,1660609229
pacific grove,36.6177,-121.9166,77.23,83,0,9.22,US,1660608752
bengkulu,-3.8004,102.2655,75.45,89,95,5.14,ID,1660608691
jamestown,42.097,-79.2353,69.39,71,75,1.99,US,1660608706
qasigiannguit,68.8193,-51.1922,52.05,74,100,10.67,GL,1660609230
thompson,55.7435,-97.8558,78.13,40,45,4.68,CA,1660608737
khuzdar,27.7384,66.6434,73.38,81,69,3.78,PK,1660608889
naryan-mar,67.6713,53.087,48.42,65,100,11.39,RU,1660608914
dunedin,-45.8742,170.5036,55.8,55,81,5.99,NZ,1660608955
bluff,-46.6,168.3333,55.8,68,69,3.76,NZ,1660608746
hilo,19.7297,-155.09,86.29,80,100,10.36,US,1660608679
vavuniya,8.7514,80.4971,75.02,89,100,5.01,LK,1660609135
monrovia,6.3005,-10.7969,76.77,88,100,16.11,LR,1660609232
kruisfontein,-34.0033,24.7314,49.26,47,100,7.16,ZA,1660608682
cidreira,-30.1811,-50.2056,60.93,97,79,7.2,BR,1660608841
ouro preto do oeste,-10.7481,-62.2158,81.03,53,60,2.57,BR,1660609005
nushki,29.5542,66.0215,82.56,51,13,2.86,PK,1660609233
muros,42.7762,-9.0603,63.84,94,76,6.93,ES,1660608860
ponta do sol,32.6667,-17.1,74.71,78,27,6.46,PT,1660608780
coahuayana,18.7333,-103.6833,82.17,80,100,2.28,MX,1660608938
baghdad,33.3406,44.4009,85.91,28,0,10.36,IQ,1660609031
vaini,-21.2,-175.2,72.21,64,100,30.6,TO,1660608684
rapid valley,44.0625,-103.1463,82.53,49,40,8.05,US,1660608969
port-gentil,-0.7193,8.7815,73.02,78,51,8.46,GA,1660608724
tessalit,20.1986,1.0114,94.23,31,82,20.09,ML,1660609236
constitucion,-35.3333,-72.4167,49.62,71,99,8.05,CL,1660608678
saskylakh,71.9167,114.0833,49.89,79,17,7.25,RU,1660608736
provideniya,64.3833,-173.3,44.37,70,75,15.66,RU,1660608718
buncrana,55.1333,-7.45,56.35,89,97,12.21,IE,1660609237
la rioja,42.25,-2.5,60.58,41,4,6.44,ES,1660609237
oksfjord,70.2396,22.3479,62.67,87,74,10.09,NO,1660609238
abonnema,4.7084,6.7931,73.81,84,99,4.76,NG,1660609238
emerald,-23.5333,148.1667,65.34,45,0,5.23,AU,1660609239
cabo san lucas,22.8909,-109.9124,89.06,65,100,9.22,MX,1660608551
belmonte,-15.8631,-38.8828,70.48,87,45,9.33,BR,1660608920
japura,-0.3167,102.35,74.93,92,91,1.41,ID,1660609240
coihaique,-45.5752,-72.0662,40.95,52,40,9.22,CL,1660609240
khatanga,71.9667,102.5,57.87,51,8,13.04,RU,1660608712
menongue,-14.6585,17.691,54.7,22,3,5.03,AO,1660609241
arlit,18.7369,7.3853,90.01,36,79,9.95,NE,1660608797
mar del plata,-38.0023,-57.5575,46.87,66,1,3.0,AR,1660608710
touros,-5.1989,-35.4608,73.38,75,5,14.32,BR,1660608548
salalah,17.0151,54.0924,75.29,100,100,6.91,OM,1660608867
siavonga,-16.5382,28.7088,69.6,47,2,1.43,ZM,1660609242
beloha,-25.1667,45.05,65.43,79,81,8.95,MG,1660608730
cruz grande,16.7333,-99.1333,80.55,85,93,2.28,MX,1660609243
llanes,43.4198,-4.7549,67.48,80,99,5.86,ES,1660609243
waingapu,-9.6567,120.2641,78.96,64,65,10.25,ID,1660608851
ahipara,-35.1667,173.1667,62.08,84,100,19.15,NZ,1660608723
husavik,66.0449,-17.3389,41.5,81,44,4.21,IS,1660608755
asau,46.4333,26.4,63.52,90,93,5.03,RO,1660608678
carnarvon,-24.8667,113.6333,68.07,94,75,8.05,AU,1660608722
bandarbeyla,9.4942,50.8122,75.96,85,35,25.61,SO,1660608764
avarua,-21.2078,-159.775,73.45,49,96,12.66,CK,1660608450
comarapa,-17.9,-64.4833,55.35,92,97,5.3,BO,1660609246
missoula,47.0166,-113.8009,85.84,15,55,4.52,US,1660609153
leningradskiy,69.3833,178.4167,37.85,71,70,11.14,RU,1660608915
sulangan,11.1373,123.7228,82.85,71,100,4.32,PH,1660608688
georgetown,5.4112,100.3354,84.88,80,20,2.3,MY,1660608727
kingaroy,-26.5333,151.8333,59.13,39,0,4.99,AU,1660609247
tukrah,32.5341,20.5791,77.99,68,0,8.28,LY,1660609248
atar,20.5169,-13.0499,98.74,15,27,5.41,MR,1660608891
severo-kurilsk,50.6789,156.125,55.85,90,60,15.77,RU,1660608685
dodan,17.6411,121.8001,80.51,85,97,5.37,PH,1660609248
tuatapere,-46.1333,167.6833,56.88,71,89,4.12,NZ,1660608762
deputatskiy,69.3,139.9,47.34,59,10,9.46,RU,1660609249
teseney,15.11,36.6575,74.48,88,100,4.97,ER,1660609250
noumea,-22.2763,166.4572,73.99,99,100,9.13,NC,1660609250
luderitz,-26.6481,15.1594,57.16,50,1,5.66,NA,1660608753
vardo,70.3705,31.1107,53.58,87,75,10.36,NO,1660608647
saravan,39.7196,45.6483,67.59,33,0,6.76,AM,1660609251
isangel,-19.55,169.2667,79.48,79,97,20.09,VU,1660608877
peleduy,59.6289,112.7406,51.66,99,91,4.25,RU,1660609252
necochea,-38.5473,-58.7368,43.95,54,0,10.29,AR,1660608588
cape town,-33.9258,18.4232,56.37,78,100,0.74,ZA,1660608473
chuy,-33.6971,-53.4616,52.45,81,100,8.75,UY,1660608693
corinto,37.9407,22.9573,72.9,70,0,4.34,GR,1660609253
ambon,-3.6954,128.1814,77.14,94,40,4.61,ID,1660608560
sakakah,29.9697,40.2064,89.17,21,0,4.5,SA,1660609254
buraydah,26.326,43.975,88.25,18,0,8.28,SA,1660609254
cap malheureux,-19.9842,57.6142,68.47,77,100,4.0,MU,1660609255
east london,-33.0153,27.9116,54.37,60,55,10.69,ZA,1660608690
butaritari,3.0707,172.7902,81.9,73,92,14.07,KI,1660608689
puerto madryn,-42.7692,-65.0385,48.78,57,91,19.13,AR,1660609164
chicama,-7.8447,-79.1469,57.74,83,33,7.52,PE,1660609256
airai,-8.9266,125.4092,64.22,59,56,2.55,TL,1660608765
puerto ayora,-0.7393,-90.3518,69.55,95,95,8.01,EC,1660608686
hermanus,-34.4187,19.2345,46.8,60,100,5.03,ZA,1660608704
karasuk,53.7377,78.0403,48.45,68,51,6.44,RU,1660609258
fortuna,40.5982,-124.1573,65.91,81,75,14.97,US,1660608779
mount gambier,-37.8333,140.7667,49.91,93,75,20.71,AU,1660608829
kharitonovo,61.4009,47.4978,53.46,72,11,1.57,RU,1660609258
mocuba,-16.8392,36.9856,67.03,92,3,4.59,MZ,1660609259
haizhou,34.5817,119.1289,80.94,92,66,9.13,CN,1660609260
manicore,-5.8092,-61.3003,78.75,89,0,3.44,BR,1660609260
bayan,46.0833,127.4,69.85,72,9,4.94,CN,1660609261
auki,-8.7676,160.7034,84.72,57,100,3.13,SB,1660608887
rocha,-34.4833,-54.3333,51.04,87,72,11.63,UY,1660608986
goderich,43.7501,-81.7165,74.91,65,63,11.83,CA,1660608745
sibiti,-3.6819,13.3499,67.41,67,75,2.19,CG,1660609262
port hardy,50.6996,-127.4199,66.33,77,100,4.09,CA,1660608798
alofi,-19.0595,-169.9187,78.69,50,40,27.63,NU,1660608914
faya,18.3851,42.4509,66.72,78,90,6.24,SA,1660608716
zyryanka,65.75,150.85,59.05,50,39,5.59,RU,1660609264
santa isabel do rio negro,-0.4139,-65.0192,79.75,71,98,1.25,BR,1660608799
mangaratiba,-22.9597,-44.0406,74.26,53,0,8.25,BR,1660609265
port alfred,-33.5906,26.891,49.17,82,69,13.02,ZA,1660608682
aklavik,68.2191,-135.0107,56.53,73,100,3.42,CA,1660609265
thinadhoo,0.5333,72.9333,83.03,72,6,10.07,MV,1660609266
luanda,-8.8368,13.2343,66.2,94,86,3.44,AO,1660609087
esperance,-33.8667,121.9,60.64,78,100,15.19,AU,1660608754
najran,17.4924,44.1277,81.25,32,86,5.41,SA,1660608725
kalabo,-14.97,22.6814,58.33,21,0,6.6,ZM,1660608879
sibolga,1.7427,98.7792,76.42,87,99,1.97,ID,1660608812
meulaboh,4.1363,96.1285,75.76,87,96,4.59,ID,1660608831
dudinka,69.4058,86.1778,56.62,69,98,4.23,RU,1660608857
north ogden,41.3072,-111.9602,92.84,22,95,5.01,US,1660609268
jawad,24.6,74.85,75.34,92,100,8.77,IN,1660609269
torbay,47.6666,-52.7314,67.57,86,30,4.0,CA,1660608769
maarianhamina,60.0973,19.9348,71.46,78,0,8.05,AX,1660609269
lata,40.1629,-8.3327,61.61,91,42,1.32,PT,1660608824
port elizabeth,-33.918,25.5701,51.73,67,84,9.35,ZA,1660608753
fare,-16.7,-151.0167,77.36,78,43,8.84,PF,1660609270
kahului,20.8947,-156.47,87.82,69,20,21.85,US,1660608810
qaanaaq,77.484,-69.3632,41.7,81,96,2.98,GL,1660608680
haverfordwest,51.8017,-4.9691,61.05,91,59,1.01,GB,1660609271
san quintin,30.4833,-115.95,74.84,75,1,12.71,MX,1660608705
sao filipe,14.8961,-24.4956,78.06,78,76,4.52,CV,1660608724
shingu,33.7333,135.9833,85.14,78,93,13.76,JP,1660608850
grand gaube,-20.0064,57.6608,68.4,77,93,4.0,MU,1660609272
avera,33.194,-82.5271,83.71,57,89,4.9,US,1660608679
kedgwick,47.6446,-67.3434,61.23,84,83,1.19,CA,1660609273
college,64.8569,-147.8028,66.15,59,75,6.91,US,1660608775
norman wells,65.282,-126.8329,69.64,70,50,12.3,CA,1660608733
cherskiy,68.75,161.3,57.51,47,12,9.95,RU,1660608689
pozo colorado,-23.4923,-58.7972,87.04,35,48,5.61,PY,1660609275
tabou,4.423,-7.3528,75.25,82,96,11.9,CI,1660609275
altay,47.8667,88.1167,61.7,50,34,1.66,CN,1660609276
krasnoselkup,65.7,82.4667,48.79,87,100,14.29,RU,1660608925
vila velha,-20.3297,-40.2925,69.94,86,75,9.22,BR,1660608987
tsiroanomandidy,-18.7667,46.0333,59.52,65,2,1.23,MG,1660609277
guaranda,-1.6,-79.0,54.84,99,72,3.6,EC,1660609277
zhigansk,66.7697,123.3711,54.16,88,100,6.93,RU,1660608863
victoria,22.2855,114.1577,86.38,86,44,5.01,HK,1660608522
huarmey,-10.0681,-78.1522,62.83,82,27,12.91,PE,1660609278
pio ix,-6.8375,-40.5792,71.73,65,16,10.42,BR,1660609279
port hedland,-20.3167,118.5667,73.45,49,1,6.91,AU,1660609279
new norfolk,-42.7826,147.0587,55.92,86,76,1.01,AU,1660608733
notodden,59.5594,9.2585,68.76,85,18,1.95,NO,1660609280
tinskoy,56.1525,96.9161,48.11,95,100,12.88,RU,1660609281
matara,5.9485,80.5353,78.8,84,97,7.96,LK,1660609281
tiksi,71.6872,128.8694,49.68,83,39,6.4,RU,1660608695
pevek,69.7008,170.3133,35.92,88,30,1.95,RU,1660608481
udachnyy,66.4167,112.4,52.45,93,99,14.09,RU,1660609282
grindavik,63.8424,-22.4338,45.07,87,20,4.61,IS,1660608699
boa vista,2.8197,-60.6733,77.85,75,79,3.47,BR,1660608824
pangai,-19.8,-174.35,80.71,89,20,16.11,TO,1660609283
biscarrosse,44.3945,-1.1672,62.55,94,31,2.3,FR,1660609284
malindi,-3.2175,40.1191,74.05,87,38,15.21,KE,1660609007
tahta,26.7693,31.5021,83.17,36,2,9.51,EG,1660608771
klyuchi,52.2667,79.1667,49.89,71,6,8.88,RU,1660609285
kundiawa,-6.0167,144.9667,76.48,44,75,1.5,PG,1660609285
souillac,-20.5167,57.5167,68.38,83,75,10.36,MU,1660609286
kismayo,-0.3582,42.5454,75.2,87,100,15.75,SO,1660609286
khasan,42.4308,130.6434,71.46,78,79,11.77,RU,1660609287
caxito,-8.5785,13.6643,67.26,88,89,2.73,AO,1660609287
tanete,-3.9443,119.7848,78.8,74,87,8.46,ID,1660609288
barguzin,53.6167,109.6167,58.12,88,100,7.16,RU,1660609288
bara,10.3744,10.7288,70.97,99,100,7.54,NG,1660609289
bathsheba,13.2167,-59.5167,83.01,78,40,13.8,BB,1660609289
neiafu,-18.65,-173.9833,77.68,69,40,18.41,TO,1660609290
sao desiderio,-12.3633,-44.9733,71.15,47,11,2.35,BR,1660609290
portland,45.5234,-122.6762,92.55,40,20,10.36,US,1660608620
shimoda,34.6667,138.95,86.11,89,95,21.45,JP,1660609291
piedade,-23.7119,-47.4278,63.57,46,2,5.55,BR,1660609292
lompoc,34.6391,-120.4579,70.84,78,0,12.66,US,1660608855
rudnogorsk,57.2639,103.7519,49.08,89,89,8.16,RU,1660609292
peniche,39.3558,-9.3811,66.92,91,3,8.55,PT,1660608877
weymouth,42.2209,-70.9398,72.91,67,75,8.05,US,1660609015
port lincoln,-34.7333,135.8667,55.74,69,3,3.29,AU,1660608462
saint-augustin,51.226,-58.6502,61.63,70,38,1.48,CA,1660609293
saint-pierre,-21.3393,55.4781,66.9,66,0,6.91,RE,1660608603
fiche,9.8,38.7333,51.04,87,100,2.71,ET,1660609294
katangli,51.7102,143.2326,63.18,79,7,5.19,RU,1660609295
fairlie,55.756,-4.8556,61.23,92,99,6.98,GB,1660609295
mae sai,20.4335,99.8762,72.63,99,66,0.94,TH,1660609296
palmer,42.1584,-72.3287,76.6,55,40,6.91,US,1660609296
jieshi,22.8134,115.8257,83.43,76,28,5.17,CN,1660609296
vao,-22.6667,167.4833,73.15,82,100,19.01,NC,1660608845
hervey bay,-25.2986,152.8535,61.5,47,0,5.44,AU,1660609297
erzin,36.9559,36.2,74.34,82,11,1.5,TR,1660609297
hami,42.8,93.45,81.48,18,55,8.43,CN,1660608923
ixtapa,20.7,-105.2,77.23,94,100,4.61,MX,1660608549
bajah,13.8141,44.6301,80.83,60,100,2.33,YE,1660609298
geraldton,-28.7667,114.6,63.01,94,100,14.97,AU,1660609299
bhag,29.0415,67.8239,88.97,64,44,1.74,PK,1660609299
tucuman,-26.8241,-65.2226,59.0,33,11,6.91,AR,1660609215
rosarito,32.3333,-117.0333,88.23,71,27,7.92,MX,1660609300
lorengau,-2.0226,147.2712,83.39,61,95,4.18,PG,1660609301
hohhot,40.8106,111.6522,66.49,68,0,6.71,CN,1660609301
muisne,0.6,-80.0333,74.08,82,95,8.63,EC,1660609301
ostersund,63.1792,14.6357,66.65,88,40,11.5,SE,1660609302
haines junction,60.7522,-137.5108,62.55,45,100,5.75,CA,1660609303
kayalpattinam,8.5667,78.1167,80.22,80,97,5.21,IN,1660609303
kaseda,31.4167,130.3167,84.92,79,86,15.26,JP,1660608870
ahraura,25.0167,83.0167,78.62,80,87,11.52,IN,1660609304
tarrafal,15.2833,-23.7667,81.39,81,82,5.32,CV,1660609304
berlevag,70.8578,29.0864,57.0,82,100,0.0,NO,1660609305
dongsheng,39.8161,109.9776,70.48,48,0,5.82,CN,1660609305
floro,61.5996,5.0328,63.23,94,75,6.91,NO,1660609306
hovd,48.0056,91.6419,64.38,35,0,5.28,MN,1660608826
banjar,-8.19,114.9675,78.89,86,95,4.0,ID,1660609307
belyy yar,53.6039,91.3903,52.86,64,0,4.47,RU,1660608774
santa rosa,14.3122,121.1114,85.08,75,100,2.13,PH,1660609123
dingle,10.9995,122.6711,80.98,83,100,6.13,PH,1660609308
egvekinot,66.3167,-179.1667,40.46,54,67,6.6,RU,1660608765
camana,-16.6228,-72.7111,59.31,87,85,11.52,PE,1660609309
dukhovshchina,55.1919,32.4111,62.02,83,61,5.66,RU,1660609309
biak,-0.9131,122.8766,78.17,72,99,5.26,ID,1660609310
mayya,61.7333,130.2811,60.12,89,80,1.16,RU,1660609310
fairbanks,64.8378,-147.7164,67.6,61,75,6.91,US,1660609017
requena,39.4883,-1.1004,70.52,85,20,1.48,ES,1660609311
alekseyevsk,57.8406,108.3492,50.94,94,93,9.73,RU,1660609311
sur,22.5667,59.5289,88.7,63,100,0.47,OM,1660609312
tomatlan,19.9333,-105.25,76.48,94,100,2.66,MX,1660609312
sioux lookout,50.1001,-91.917,70.32,80,53,4.21,CA,1660608748
taylor,32.3001,-99.8337,92.66,34,75,14.97,US,1660609313
chokurdakh,70.6333,147.9167,56.82,48,6,12.15,RU,1660608564
freeport,40.6576,-73.5832,76.17,60,0,5.75,US,1660609314
buchanan,5.8808,-10.0467,74.68,86,99,13.44,LR,1660608795
nguruka,-5.1092,31.0419,70.84,42,96,2.77,TZ,1660609315
kapit,2.0167,112.9333,76.14,93,96,0.27,MY,1660609315
lavrentiya,65.5833,-171.0,40.78,69,100,12.01,RU,1660608800
viedma,-40.8135,-62.9967,47.53,59,54,27.54,AR,1660609316
los llanos de aridane,28.6585,-17.9182,69.55,92,0,10.36,ES,1660609317
bambous virieux,-20.3428,57.7575,68.22,73,89,12.3,MU,1660608786
waddan,29.1614,16.139,84.47,32,0,7.25,LY,1660608921
ilulissat,69.2167,-51.1,51.82,62,75,17.27,GL,1660609318
nanlong,31.3533,106.0631,81.63,84,100,3.67,CN,1660609319
maitum,6.0392,124.4986,80.76,75,100,1.74,PH,1660609319
baykit,61.67,96.37,50.79,96,100,3.36,RU,1660608817
taoudenni,22.6783,-3.9836,101.52,13,49,6.91,ML,1660608881
balkanabat,39.5108,54.3671,88.61,17,0,6.96,TM,1660609320
cayenne,4.9333,-52.3333,82.09,1,0,0.0,GF,1660608816
padang,-0.9492,100.3543,75.25,86,67,3.29,ID,1660608894
sakaiminato,35.55,133.2333,87.78,70,75,16.11,JP,1660609321
taltal,-25.4,-70.4833,60.08,68,7,8.57,CL,1660609322
bukama,-9.2,25.85,72.01,26,14,2.28,CD,1660609322
kinablangan,7.6947,126.5503,82.36,77,71,2.89,PH,1660609323
oksovskiy,62.6062,39.8984,57.79,82,83,4.18,RU,1660609323
aykhal,66.0,111.5,47.82,97,100,13.76,RU,1660609324
itarema,-2.9248,-39.9167,77.43,73,11,16.71,BR,1660608873
broome,42.2506,-75.833,70.56,80,100,3.44,US,1660609325
boueni,-12.9025,45.0761,73.38,72,6,6.31,YT,1660609325
labuhan,-6.8844,112.2051,79.0,85,82,7.94,ID,1660608900
petropavlovsk-kamchatskiy,53.0452,158.6483,61.39,88,75,4.47,RU,1660608750
chifeng,42.2683,118.9636,66.97,68,0,3.69,CN,1660609326
port arthur,38.8,121.2667,77.22,73,0,15.77,CN,1660609326
palu,-0.8917,119.8707,78.67,88,100,1.92,ID,1660609327
ayan,56.45,138.1667,56.5,89,97,5.03,RU,1660609327
marsh harbour,26.5412,-77.0636,84.47,67,92,5.95,BS,1660609328
puerto del rosario,28.5004,-13.8627,73.15,78,0,13.8,ES,1660609329
trang,7.5,99.5,75.15,100,20,2.3,TH,1660609329
synya,65.3718,58.0387,39.96,98,38,5.59,RU,1660609329
hasaki,35.7333,140.8333,88.2,79,90,20.33,JP,1660609330
panzos,15.4,-89.6667,77.74,95,91,1.28,GT,1660609330
nianzishan,47.5167,122.8833,71.76,61,2,5.14,CN,1660609331
oranjestad,12.524,-70.027,84.15,79,20,21.85,AW,1660609146
klaksvik,62.2266,-6.589,47.32,69,100,18.79,FO,1660609331
bardiyah,31.7561,25.0865,76.28,70,0,7.85,LY,1660608944
matane,48.8286,-67.522,61.65,73,60,6.44,CA,1660609332
half moon bay,37.4636,-122.4286,99.54,76,75,19.57,US,1660608844
safaga,26.7292,33.9365,87.24,41,8,10.36,EG,1660609333
san cristobal,7.7669,-72.225,77.18,93,20,3.04,VE,1660608801
chapais,49.7834,-74.8492,65.98,82,20,5.77,CA,1660609334
sambava,-14.2667,50.1667,67.75,89,75,7.76,MG,1660608836
yumen,40.2833,97.2,75.09,24,19,3.29,CN,1660608751
sitka,57.0531,-135.33,57.09,82,100,5.75,US,1660609335
carlisle,40.2015,-77.1889,72.18,74,95,2.91,US,1660609298
komsomolskiy,40.4272,71.7189,79.52,34,78,2.3,UZ,1660608772
sandakan,5.8402,118.1179,78.48,83,20,6.91,MY,1660609336
maroantsetra,-15.4333,49.7333,65.53,92,36,3.38,MG,1660609336
krasnoarmeysk,51.0239,45.6969,61.54,58,0,10.63,RU,1660609337
rio grande,-32.035,-52.0986,62.71,98,100,6.02,BR,1660608620
evans,33.5337,-82.1307,88.0,57,75,8.01,US,1660609337
smithers,54.7804,-127.1743,66.52,72,75,5.75,CA,1660609338
north bend,43.4065,-124.2243,79.25,88,0,13.8,US,1660609338
maniitsoq,65.4167,-52.9,41.49,96,100,11.81,GL,1660609339
ewa beach,21.3156,-158.0072,89.55,54,100,12.66,US,1660609339
hofn,64.2539,-15.2082,48.4,69,49,5.12,IS,1660608791
petauke,-14.2426,31.3253,70.83,32,4,11.86,ZM,1660609340
vanavara,60.34,102.2797,49.75,98,100,8.63,RU,1660609340
marsa matruh,31.3525,27.2453,76.95,71,0,8.97,EG,1660608796
tamandare,-8.7597,-35.1047,74.19,73,16,10.78,BR,1660609341
victor harbor,-35.5667,138.6167,57.99,72,66,1.01,AU,1660609342
palana,59.1167,159.9667,55.63,83,100,5.41,RU,1660609342
madang,-5.2246,145.7966,83.71,67,98,2.44,PG,1660609342
celestun,20.8667,-90.4,82.71,75,42,15.41,MX,1660609343
xining,36.6167,101.7667,59.34,83,17,1.79,CN,1660609343
zilair,52.2332,57.4392,53.47,64,0,4.38,RU,1660609344
kutum,14.2,24.6667,70.7,71,91,2.71,SD,1660609344
les cayes,18.2,-73.75,79.9,80,36,4.09,HT,1660609345
nemuro,43.3236,145.575,68.5,94,100,28.21,JP,1660608924
central point,42.376,-122.9164,97.43,25,0,13.8,US,1660609271
hagerstown,39.6418,-77.72,67.59,91,100,0.0,US,1660608840
pisco,-13.7,-76.2167,62.02,82,3,20.71,PE,1660608899
cilegon,-6.0174,106.0538,79.21,80,73,3.85,ID,1660609346
zalantun,48.0,122.7167,71.13,58,8,5.01,CN,1660608889
dhanwar,24.4167,85.9833,75.15,85,90,6.2,IN,1660609347
bathurst,-33.4166,149.5806,46.72,91,92,11.14,AU,1660609347
baruun-urt,46.6806,113.2792,66.54,50,0,8.9,MN,1660608948
ampanihy,-24.7,44.75,66.02,80,65,8.61,MG,1660609348
richards bay,-28.783,32.0377,56.25,67,0,6.04,ZA,1660609349
rivadavia,-33.1905,-68.4608,51.78,27,37,6.35,AR,1660609349
riberalta,-10.9833,-66.1,85.08,48,51,5.7,BO,1660609349
bissau,11.8636,-15.5977,78.91,94,20,2.3,GW,1660609350
comodoro rivadavia,-45.8667,-67.5,48.06,46,0,33.38,AR,1660608746
makakilo city,21.3469,-158.0858,88.12,54,100,12.66,US,1660608760
henties bay,-22.116,14.2845,53.73,86,30,3.0,NA,1660609351
kiama,-34.6833,150.8667,63.57,55,87,14.0,AU,1660609351
sindor,62.8629,51.8905,46.18,79,10,2.77,RU,1660609352
ventspils,57.3894,21.5606,71.53,83,0,5.75,LV,1660609352
ust-kuyga,70.0167,135.6,61.99,55,65,3.24,RU,1660608875
dikson,73.5069,80.5464,41.18,96,100,21.05,RU,1660609353
toguchin,55.2353,84.3858,45.54,91,90,7.81,RU,1660609353
nishihara,26.1842,127.7558,88.88,77,40,10.36,JP,1660609354
clyde river,70.4692,-68.5914,39.69,88,100,6.73,CA,1660608811
bako,5.7833,36.5667,62.85,85,83,2.15,ET,1660609068
tilichiki,60.4667,166.1,53.51,90,100,12.75,RU,1660608803
vila franca do campo,37.7167,-25.4333,71.2,82,66,10.0,PT,1660609355
itacarambi,-15.1022,-44.0919,71.13,42,0,1.19,BR,1660609355
aksarka,66.5606,67.7975,44.89,95,94,9.75,RU,1660608910
wenling,28.3669,121.36,85.69,77,66,9.51,CN,1660609356
vizinga,61.0749,50.1031,51.84,86,12,3.22,RU,1660609357
nikolskoye,59.7035,30.7861,68.88,69,52,4.34,RU,1660609357
berezovyy,51.6667,135.7,69.24,74,2,1.5,RU,1660609358
paita,-5.0892,-81.1144,64.69,82,5,18.03,PE,1660609358
kanganpur,30.7663,74.1231,79.09,79,97,2.98,PK,1660609358
yulara,-25.2406,130.9889,57.38,34,0,8.61,AU,1660609359
santa cruz,-17.8,-63.1667,78.26,73,83,16.11,BO,1660608529
sangar,63.9242,127.4739,57.81,89,93,1.23,RU,1660608902
surin,14.8818,103.4936,77.38,92,100,8.46,TH,1660609360
bereda,43.2686,-7.5406,61.41,100,96,5.59,ES,1660608803
sharjah,25.3573,55.4033,93.18,70,0,8.05,AE,1660609361
santa helena de goias,-17.8136,-50.5969,78.03,27,4,4.56,BR,1660609361
daru,-9.0763,143.2092,78.12,85,100,10.36,PG,1660609362
sorland,67.667,12.6934,57.06,92,100,7.58,NO,1660609362
oranjemund,-28.55,16.4333,54.72,60,1,4.54,NA,1660609362
kamenka,51.3223,42.7678,64.47,46,44,12.64,RU,1660608940
dedza,-14.3779,34.3332,57.58,51,4,4.09,MW,1660609363
loreto,22.2667,-101.9667,63.21,80,90,8.05,MX,1660609363
la ronge,55.1001,-105.2842,79.02,50,40,6.91,CA,1660609364
forio,40.7342,13.8646,80.42,88,90,4.0,IT,1660609364
de-kastri,51.4667,140.7833,69.13,70,1,3.38,RU,1660609365
rio muerto,27.4167,-110.2333,86.52,59,88,7.34,MX,1660609366
buala,-8.145,159.5921,84.88,64,94,8.14,SB,1660609366
virginia beach,36.8529,-75.978,72.01,77,75,3.44,US,1660608628
bratsk,56.1325,101.6142,50.49,84,47,9.28,RU,1660609367
adrar,20.5022,-10.0711,98.19,5,5,8.63,MR,1660608932
valjevo,44.2751,19.8982,67.8,57,33,6.53,RS,1660609367
camabatela,-8.1881,15.375,58.35,85,51,4.29,AO,1660609368
emmett,43.8735,-116.4993,100.63,18,0,7.11,US,1660609305
torit,4.4133,32.5678,66.76,97,49,0.2,SS,1660609369
cabra,37.4725,-4.4421,68.67,64,0,2.46,ES,1660609369
ayagoz,47.9714,80.4392,52.14,55,3,11.97,KZ,1660609370
russell,32.3502,-85.1999,88.83,84,0,0.0,US,1660609186
hambantota,6.1241,81.1185,78.1,84,91,11.56,LK,1660609370
ginda,30.6945,78.4932,62.38,80,97,3.44,IN,1660609371
saint-paul,-21.0096,55.2707,68.11,62,0,5.48,RE,1660609371
nicoya,10.1483,-85.452,75.07,94,86,1.3,CR,1660609372
scarborough,54.2797,-0.4044,63.34,90,98,5.73,GB,1660609372
valparaiso,-33.0393,-71.6273,53.24,86,75,3.44,CL,1660609176
ulladulla,-35.35,150.4667,58.42,46,3,9.31,AU,1660608908
umba,66.6871,34.3429,54.48,94,100,7.85,RU,1660609373
rawson,-43.3002,-65.1023,47.1,62,96,22.82,AR,1660608885
puro,12.4841,123.3827,82.06,79,100,10.8,PH,1660609374
luganville,-15.5333,167.1667,82.24,77,43,11.88,VU,1660609375
zhanaozen,43.3,52.8,83.61,22,0,11.36,KZ,1660609375
shakawe,-18.3667,21.85,53.83,19,0,5.06,BW,1660609376
saint-joseph,-21.3667,55.6167,66.58,71,17,7.23,RE,1660609376
yendi,9.4427,-0.0099,72.61,95,100,6.96,GH,1660609377
bodden town,19.2833,-81.25,86.0,75,20,3.44,KY,1660609377
hasan abdal,30.4333,72.7,79.2,86,89,6.38,PK,1660609378
eenhana,-17.4667,16.3333,57.09,19,0,3.83,NA,1660609378
raudeberg,61.9875,5.1352,61.47,90,100,0.47,NO,1660609379
port-cartier,50.0334,-66.8654,65.88,68,95,3.98,CA,1660609379
xiuyan,40.2928,123.2744,69.21,84,33,10.58,CN,1660609380
kralendijk,12.15,-68.2667,84.18,74,0,16.11,BQ,1660609380
namtsy,62.7161,129.6658,59.5,86,98,1.7,RU,1660609381
saint-martin-de-crau,43.6395,4.8127,74.98,83,0,3.44,FR,1660609382
ostrovnoy,68.0531,39.5131,52.07,77,74,12.75,RU,1660608847
majene,-3.5403,118.9707,78.08,77,92,8.14,ID,1660609382
conceicao do araguaia,-8.2578,-49.2647,82.8,23,2,1.16,BR,1660609383
cockburn town,21.4612,-71.1419,82.36,74,40,5.75,TC,1660609383
katsuura,35.1333,140.3,83.23,84,93,29.28,JP,1660609384
novoanninskiy,50.5287,42.6747,64.56,58,8,10.02,RU,1660609384
teknaf,20.8624,92.3058,78.98,89,42,2.62,BD,1660609385
codrington,-38.2667,141.9667,53.46,82,50,18.9,AU,1660608936
dasoguz,41.8363,59.9666,80.28,27,0,9.8,TM,1660608823
dzhubga,44.3211,38.7039,77.11,83,13,1.79,RU,1660609386
barra do garcas,-15.89,-52.2567,75.85,33,16,5.53,BR,1660609386
tara,56.8944,74.371,48.99,72,90,8.25,RU,1660609387
anklam,53.8564,13.6897,66.09,91,70,7.99,DE,1660609387
copiapo,-27.3667,-70.3333,49.69,53,0,3.02,CL,1660609157
harwich,51.9419,1.2844,69.37,73,99,3.0,GB,1660609388
nanortalik,60.1432,-45.2371,46.65,89,100,5.21,GL,1660609388
iqaluit,63.7506,-68.5145,44.33,70,75,11.5,CA,1660609389
susangerd,31.5608,48.1831,95.85,14,0,8.46,IR,1660609390
baijiantan,45.6333,85.1833,78.04,35,31,5.93,CN,1660609390
srednekolymsk,67.45,153.6833,57.6,49,26,16.91,RU,1660609391
orocue,4.7912,-71.3354,78.57,75,9,1.81,CO,1660609391
kaputa,-8.4689,29.6619,70.43,41,24,2.64,ZM,1660609392
serebryanyy bor,56.8,124.8,59.49,78,72,1.77,RU,1660609392
aksay,47.26,39.87,86.25,25,73,15.99,RU,1660609393
rey bouba,8.6724,14.1786,69.3,98,100,1.05,CM,1660609393
olinda,-8.0089,-34.8553,76.73,61,0,8.05,BR,1660609294
alvin,29.4238,-95.2441,92.1,72,0,10.36,US,1660609394
ulaangom,49.9811,92.0667,56.97,51,3,7.25,MN,1660609394
bundaberg,-24.85,152.35,65.79,40,0,3.58,AU,1660609395
margate,51.3813,1.3862,67.69,83,91,1.01,GB,1660609252
ayaviri,-14.8864,-70.5889,50.2,22,75,5.01,PE,1660609395
ketchikan,55.3422,-131.6461,66.67,68,40,4.61,US,1660608584
puerto escondido,15.85,-97.0667,83.34,76,89,4.25,MX,1660609396
laguna,38.421,-121.4238,105.35,14,0,4.61,US,1660608928
kiunga,-6.1219,141.2906,74.1,99,100,2.1,PG,1660609397
maceio,-9.6658,-35.7353,74.64,88,75,2.3,BR,1660609397
gravdal,68.1214,13.5031,58.46,88,100,8.77,NO,1660609398
wajid,3.8093,43.2471,71.8,77,95,14.81,SO,1660609398
mount vernon,40.9126,-73.8371,76.64,57,20,10.36,US,1660609316
tsotsin-yurt,43.2381,46.0017,75.45,44,0,2.19,RU,1660609399
kuching,1.55,110.3333,77.22,94,20,2.3,MY,1660609399
ronneby,56.21,15.276,68.5,100,75,10.36,SE,1660609400
nouadhibou,20.931,-17.0347,72.5,83,14,28.68,MR,1660608843
vostok,46.4856,135.8833,67.64,67,28,4.61,RU,1660608892
asadabad,34.7824,48.1185,67.95,17,4,2.75,IR,1660609401
mehamn,71.0357,27.8492,53.51,93,100,3.44,NO,1660609401
basoko,1.2391,23.616,69.98,97,100,3.02,CD,1660609402
takhtamygda,54.1,123.5667,65.55,62,38,1.03,RU,1660609403
sinazongwe,-17.2614,27.4618,67.82,37,0,5.37,ZM,1660609403
dukat,62.55,155.55,48.92,95,100,11.59,RU,1660609404
mangan,27.5167,88.5333,72.23,85,15,3.15,IN,1660609404
presque isle,46.6811,-68.0159,70.23,77,0,3.44,US,1660609405
vrangel,42.7297,133.0839,67.51,90,100,5.21,RU,1660609406
nador,35.174,-2.9287,75.45,69,0,12.66,MA,1660609406
tammisaari,59.9736,23.4339,69.91,89,98,6.89,FI,1660609407
pombas,17.1503,-25.0201,78.58,88,69,2.42,CV,1660609407
gunjur,13.2019,-16.7339,77.07,94,40,0.0,GM,1660608946
krasyliv,49.6519,26.9725,68.25,62,100,6.17,UA,1660609408
gorontalo,0.5412,123.0595,75.9,89,100,4.47,ID,1660609408
sunland park,31.7965,-106.58,98.46,25,0,16.11,US,1660609409
senanga,-16.1167,23.2667,57.7,19,0,5.93,ZM,1660609409
sao joao da barra,-21.6403,-41.0511,71.82,72,0,26.62,BR,1660609410
dorokhovo,55.5506,36.3744,61.07,68,31,6.02,RU,1660609410
kushiro,42.975,144.3747,70.75,100,75,11.5,JP,1660609411
port macquarie,-31.4333,152.9167,64.89,49,45,6.67,AU,1660609411
hailey,43.5196,-114.3153,89.91,25,0,5.75,US,1660609142
thunder bay,48.4001,-89.3168,69.78,64,20,6.91,CA,1660609412
kazerun,29.6195,51.6541,87.93,14,0,6.35,IR,1660609412
caiaponia,-16.9567,-51.8103,72.77,33,6,5.86,BR,1660609413
beira,-19.8436,34.8389,73.49,68,40,19.57,MZ,1660609413
kpandu,6.9954,0.2931,72.07,91,99,10.74,GH,1660609414
coquimbo,-29.9533,-71.3436,55.13,76,0,3.44,CL,1660609415
burnie,-41.0667,145.9167,54.95,70,90,9.37,AU,1660609415
tondano,1.3038,124.9112,68.09,95,100,3.89,ID,1660609416
presov,49.1667,21.25,66.51,90,83,3.13,SK,1660609416
pell city,33.5862,-86.2861,78.94,84,0,0.0,US,1660609416
grajau,-5.8194,-46.1386,76.91,43,3,2.24,BR,1660609417
san patricio,28.017,-97.5169,85.95,66,100,12.17,US,1660608859
naze,28.3667,129.4833,86.92,70,27,9.78,JP,1660609418
bakchar,57.0186,82.0711,45.91,95,100,8.52,RU,1660609418
qaqortoq,60.7167,-46.0333,47.26,96,100,5.03,GL,1660609419
sao paulo de olivenca,-3.3783,-68.8725,74.75,91,69,1.68,BR,1660609419
lamar,33.6668,-95.5836,98.98,34,0,8.05,US,1660609420
tamale,9.4008,-0.8393,73.26,93,99,9.1,GH,1660609420
muriwai beach,-36.8167,174.45,62.42,88,98,14.14,NZ,1660609421
moroni,-11.7022,43.2551,73.29,73,16,3.09,KM,1660609421
ushtobe,45.2514,77.9838,63.0,33,0,17.56,KZ,1660609422
pleasanton,37.6624,-121.8747,104.0,30,0,12.66,US,1660609346
guerrero negro,27.9769,-114.0611,79.59,57,10,16.87,MX,1660609161
ranong,9.9658,98.6348,77.5,90,100,6.64,TH,1660609422
alice springs,-23.7,133.8833,58.55,38,12,11.5,AU,1660609398
takaka,-40.85,172.8,58.55,95,100,8.32,NZ,1660609423
jiwani,25.05,61.7417,81.93,86,100,12.66,PK,1660609424
lazdijai,54.2333,23.5167,65.7,82,46,7.38,LT,1660609424
yeppoon,-23.1333,150.7333,64.18,39,0,4.21,AU,1660608884
eidfjord,60.4675,7.0719,65.82,85,45,6.35,NO,1660609425
juneau,58.3019,-134.4197,60.22,98,100,2.8,US,1660609132
waipawa,-41.4122,175.5153,56.59,70,100,5.44,NZ,1660608895
belle glade,26.6845,-80.6676,81.01,71,77,4.85,US,1660609426
vanderhoof,54.0166,-124.0198,70.84,52,100,2.71,CA,1660609426
nome,64.5011,-165.4064,47.16,62,75,9.22,US,1660609427
lingyuan,41.24,119.4011,69.04,65,0,7.58,CN,1660609428
langcangan,8.4794,123.7558,79.92,76,84,1.57,PH,1660609428
mandurah,-32.55,115.7,60.91,83,100,20.02,AU,1660609338
